47.254.144.25|||"country":"Germany","city":"Frankfurt am Main","longitude":8.6833,"latitude":50.1167
119.61.19.34|||"country":"China","city":"Chaoyang","longitude":120.4586,"latitude":41.5703
39.106.220.120|||"country":"China","city":"Hangzhou","longitude":120.1614,"latitude":30.2936
47.254.16.55|||"country":"United States","city":"San Mateo","longitude":-122.3558,"latitude":37.526
123.118.52.143|||"country":"China","city":"Beijing","longitude":116.3883,"latitude":39.9289
18.188.111.53|||"country":"United States","city":"Columbus","longitude":-82.9988,"latitude":39.9612
47.254.146.147|||"country":"Germany","city":"Frankfurt am Main","longitude":8.6833,"latitude":50.1167
47.254.18.49|||"country":"United States","city":"San Mateo","longitude":-122.3558,"latitude":37.526
47.91.246.252|||"country":"Hong Kong","city":"Hong Kong","longitude":114.1667,"latitude":22.25
47.91.216.69|||"country":"Hong Kong","city":"Hong Kong","longitude":114.1667,"latitude":22.25
103.37.140.15|||"country":"China","city":"Beijing","longitude":116.3883,"latitude":39.9289
34.214.241.188|||"country":"United States","city":"Boardman","longitude":-119.529,"latitude":45.7788
39.106.205.224|||"country":"China","city":"Hangzhou","longitude":120.1614,"latitude":30.2936
39.106.208.133|||"country":"China","city":"Hangzhou","longitude":120.1614,"latitude":30.2936
223.71.166.85|||"country":"China","city":"Beijing","longitude":116.3883,"latitude":39.9289
35.169.113.187|||"country":"United States","city":"Ashburn","longitude":-77.6452,"latitude":39.0853
54.219.41.56|||"country":"United States","city":"San Jose","longitude":-121.895,"latitude":37.3394
221.223.6.66|||"country":"China","city":"Beijing","longitude":116.3883,"latitude":39.9289
81.82.194.131|||"country":"Belgium","city":"Belgium","longitude":4.35,"latitude":50.85
